{
  "type": "FeatureCollection",
  "name": "uae_interactive_points",
  "features": [
    {
      "type": "Feature",
      "properties": {
        "name": "Abu Dhabi",
        "emirate": "Abu Dhabi",
        "level": "emirate",
        "pinColor": "#7FE7FF",
        "glowColor": "#7FE7FF",
        "labelColor": "#BEEFFF",
        "labelSize": 18,
        "markerSize": 1.4,
        "theme": "uae-premium-night"
      },
      "geometry": {
        "type": "Point",
        "coordinates": [
          54.3773,
          24.4539
        ]
      }
    },
    {
      "type": "Feature",
      "properties": {
        "name": "Dubai",
        "emirate": "Dubai",
        "level": "emirate",
        "pinColor": "#7FE7FF",
        "glowColor": "#7FE7FF",
        "labelColor": "#BEEFFF",
        "labelSize": 18,
        "markerSize": 1.4,
        "theme": "uae-premium-night"
      },
      "geometry": {
        "type": "Point",
        "coordinates": [
          55.2708,
          25.2048
        ]
      }
    },
    {
      "type": "Feature",
      "properties": {
        "name": "Sharjah",
        "emirate": "Sharjah",
        "level": "emirate",
        "pinColor": "#7FE7FF",
        "glowColor": "#7FE7FF",
        "labelColor": "#BEEFFF",
        "labelSize": 18,
        "markerSize": 1.4,
        "theme": "uae-premium-night"
      },
      "geometry": {
        "type": "Point",
        "coordinates": [
          55.4209,
          25.3463
        ]
      }
    },
    {
      "type": "Feature",
      "properties": {
        "name": "Ajman",
        "emirate": "Ajman",
        "level": "emirate",
        "pinColor": "#7FE7FF",
        "glowColor": "#7FE7FF",
        "labelColor": "#BEEFFF",
        "labelSize": 18,
        "markerSize": 1.4,
        "theme": "uae-premium-night"
      },
      "geometry": {
        "type": "Point",
        "coordinates": [
          55.5136,
          25.4052
        ]
      }
    },
    {
      "type": "Feature",
      "properties": {
        "name": "Umm Al Quwain",
        "emirate": "Umm Al Quwain",
        "level": "emirate",
        "pinColor": "#7FE7FF",
        "glowColor": "#7FE7FF",
        "labelColor": "#BEEFFF",
        "labelSize": 18,
        "markerSize": 1.4,
        "theme": "uae-premium-night"
      },
      "geometry": {
        "type": "Point",
        "coordinates": [
          55.5552,
          25.5647
        ]
      }
    },
    {
      "type": "Feature",
      "properties": {
        "name": "Ras Al Khaimah",
        "emirate": "Ras Al Khaimah",
        "level": "emirate",
        "pinColor": "#7FE7FF",
        "glowColor": "#7FE7FF",
        "labelColor": "#BEEFFF",
        "labelSize": 18,
        "markerSize": 1.4,
        "theme": "uae-premium-night"
      },
      "geometry": {
        "type": "Point",
        "coordinates": [
          55.9762,
          25.8007
        ]
      }
    },
    {
      "type": "Feature",
      "properties": {
        "name": "Fujairah",
        "emirate": "Fujairah",
        "level": "emirate",
        "pinColor": "#7FE7FF",
        "glowColor": "#7FE7FF",
        "labelColor": "#BEEFFF",
        "labelSize": 18,
        "markerSize": 1.4,
        "theme": "uae-premium-night"
      },
      "geometry": {
        "type": "Point",
        "coordinates": [
          56.3265,
          25.1288
        ]
      }
    },
    {
      "type": "Feature",
      "properties": {
        "name": "Downtown Dubai",
        "emirate": "Dubai",
        "level": "community",
        "pinColor": "#F5D27A",
        "glowColor": "#FFE8A3",
        "labelColor": "#EAF9FF",
        "labelSize": 14,
        "markerSize": 1.0,
        "theme": "uae-premium-night"
      },
      "geometry": {
        "type": "Point",
        "coordinates": [
          55.2744,
          25.1972
        ]
      }
    },
    {
      "type": "Feature",
      "properties": {
        "name": "Business Bay",
        "emirate": "Dubai",
        "level": "community",
        "pinColor": "#7FE7FF",
        "glowColor": "#A9F4FF",
        "labelColor": "#EAF9FF",
        "labelSize": 14,
        "markerSize": 1.0,
        "theme": "uae-premium-night"
      },
      "geometry": {
        "type": "Point",
        "coordinates": [
          55.2639,
          25.1851
        ]
      }
    },
    {
      "type": "Feature",
      "properties": {
        "name": "Dubai Marina",
        "emirate": "Dubai",
        "level": "community",
        "pinColor": "#F5D27A",
        "glowColor": "#FFE8A3",
        "labelColor": "#EAF9FF",
        "labelSize": 14,
        "markerSize": 1.0,
        "theme": "uae-premium-night"
      },
      "geometry": {
        "type": "Point",
        "coordinates": [
          55.1403,
          25.08
        ]
      }
    },
    {
      "type": "Feature",
      "properties": {
        "name": "Palm Jumeirah",
        "emirate": "Dubai",
        "level": "community",
        "pinColor": "#7FE7FF",
        "glowColor": "#A9F4FF",
        "labelColor": "#EAF9FF",
        "labelSize": 14,
        "markerSize": 1.0,
        "theme": "uae-premium-night"
      },
      "geometry": {
        "type": "Point",
        "coordinates": [
          55.1386,
          25.1124
        ]
      }
    },
    {
      "type": "Feature",
      "properties": {
        "name": "Jumeirah Village Circle",
        "emirate": "Dubai",
        "level": "community",
        "pinColor": "#F5D27A",
        "glowColor": "#FFE8A3",
        "labelColor": "#EAF9FF",
        "labelSize": 14,
        "markerSize": 1.0,
        "theme": "uae-premium-night"
      },
      "geometry": {
        "type": "Point",
        "coordinates": [
          55.21,
          25.0603
        ]
      }
    },
    {
      "type": "Feature",
      "properties": {
        "name": "Dubai Hills Estate",
        "emirate": "Dubai",
        "level": "community",
        "pinColor": "#7FE7FF",
        "glowColor": "#A9F4FF",
        "labelColor": "#EAF9FF",
        "labelSize": 14,
        "markerSize": 1.0,
        "theme": "uae-premium-night"
      },
      "geometry": {
        "type": "Point",
        "coordinates": [
          55.2385,
          25.1128
        ]
      }
    },
    {
      "type": "Feature",
      "properties": {
        "name": "Jumeirah Lakes Towers",
        "emirate": "Dubai",
        "level": "community",
        "pinColor": "#7FE7FF",
        "glowColor": "#A9F4FF",
        "labelColor": "#EAF9FF",
        "labelSize": 14,
        "markerSize": 1.0,
        "theme": "uae-premium-night"
      },
      "geometry": {
        "type": "Point",
        "coordinates": [
          55.1389,
          25.07
        ]
      }
    },
    {
      "type": "Feature",
      "properties": {
        "name": "Bluewaters Island",
        "emirate": "Dubai",
        "level": "community",
        "pinColor": "#F5D27A",
        "glowColor": "#FFE8A3",
        "labelColor": "#EAF9FF",
        "labelSize": 14,
        "markerSize": 1.0,
        "theme": "uae-premium-night"
      },
      "geometry": {
        "type": "Point",
        "coordinates": [
          55.1211,
          25.0809
        ]
      }
    },
    {
      "type": "Feature",
      "properties": {
        "name": "Dubai Creek Harbour",
        "emirate": "Dubai",
        "level": "community",
        "pinColor": "#7FE7FF",
        "glowColor": "#A9F4FF",
        "labelColor": "#EAF9FF",
        "labelSize": 14,
        "markerSize": 1.0,
        "theme": "uae-premium-night"
      },
      "geometry": {
        "type": "Point",
        "coordinates": [
          55.347,
          25.2067
        ]
      }
    },
    {
      "type": "Feature",
      "properties": {
        "name": "Dubai South",
        "emirate": "Dubai",
        "level": "community",
        "pinColor": "#F5D27A",
        "glowColor": "#FFE8A3",
        "labelColor": "#EAF9FF",
        "labelSize": 14,
        "markerSize": 1.0,
        "theme": "uae-premium-night"
      },
      "geometry": {
        "type": "Point",
        "coordinates": [
          55.1262,
          24.8746
        ]
      }
    },
    {
      "type": "Feature",
      "properties": {
        "name": "Meydan",
        "emirate": "Dubai",
        "level": "community",
        "pinColor": "#7FE7FF",
        "glowColor": "#A9F4FF",
        "labelColor": "#EAF9FF",
        "labelSize": 14,
        "markerSize": 1.0,
        "theme": "uae-premium-night"
      },
      "geometry": {
        "type": "Point",
        "coordinates": [
          55.3014,
          25.1604
        ]
      }
    },
    {
      "type": "Feature",
      "properties": {
        "name": "Arabian Ranches",
        "emirate": "Dubai",
        "level": "community",
        "pinColor": "#F5D27A",
        "glowColor": "#FFE8A3",
        "labelColor": "#EAF9FF",
        "labelSize": 14,
        "markerSize": 1.0,
        "theme": "uae-premium-night"
      },
      "geometry": {
        "type": "Point",
        "coordinates": [
          55.2708,
          25.0503
        ]
      }
    },
    {
      "type": "Feature",
      "properties": {
        "name": "Al Barsha",
        "emirate": "Dubai",
        "level": "community",
        "pinColor": "#7FE7FF",
        "glowColor": "#A9F4FF",
        "labelColor": "#EAF9FF",
        "labelSize": 14,
        "markerSize": 1.0,
        "theme": "uae-premium-night"
      },
      "geometry": {
        "type": "Point",
        "coordinates": [
          55.2006,
          25.1093
        ]
      }
    },
    {
      "type": "Feature",
      "properties": {
        "name": "Deira",
        "emirate": "Dubai",
        "level": "community",
        "pinColor": "#7FE7FF",
        "glowColor": "#A9F4FF",
        "labelColor": "#EAF9FF",
        "labelSize": 14,
        "markerSize": 1.0,
        "theme": "uae-premium-night"
      },
      "geometry": {
        "type": "Point",
        "coordinates": [
          55.33,
          25.2769
        ]
      }
    },
    {
      "type": "Feature",
      "properties": {
        "name": "Bur Dubai",
        "emirate": "Dubai",
        "level": "community",
        "pinColor": "#F5D27A",
        "glowColor": "#FFE8A3",
        "labelColor": "#EAF9FF",
        "labelSize": 14,
        "markerSize": 1.0,
        "theme": "uae-premium-night"
      },
      "geometry": {
        "type": "Point",
        "coordinates": [
          55.2972,
          25.2573
        ]
      }
    },
    {
      "type": "Feature",
      "properties": {
        "name": "Al Reem Island",
        "emirate": "Abu Dhabi",
        "level": "community",
        "pinColor": "#F5D27A",
        "glowColor": "#FFE8A3",
        "labelColor": "#EAF9FF",
        "labelSize": 14,
        "markerSize": 1.0,
        "theme": "uae-premium-night"
      },
      "geometry": {
        "type": "Point",
        "coordinates": [
          54.403,
          24.495
        ]
      }
    },
    {
      "type": "Feature",
      "properties": {
        "name": "Saadiyat Island",
        "emirate": "Abu Dhabi",
        "level": "community",
        "pinColor": "#7FE7FF",
        "glowColor": "#A9F4FF",
        "labelColor": "#EAF9FF",
        "labelSize": 14,
        "markerSize": 1.0,
        "theme": "uae-premium-night"
      },
      "geometry": {
        "type": "Point",
        "coordinates": [
          54.433,
          24.542
        ]
      }
    },
    {
      "type": "Feature",
      "properties": {
        "name": "Yas Island",
        "emirate": "Abu Dhabi",
        "level": "community",
        "pinColor": "#F5D27A",
        "glowColor": "#FFE8A3",
        "labelColor": "#EAF9FF",
        "labelSize": 14,
        "markerSize": 1.0,
        "theme": "uae-premium-night"
      },
      "geometry": {
        "type": "Point",
        "coordinates": [
          54.6076,
          24.4908
        ]
      }
    },
    {
      "type": "Feature",
      "properties": {
        "name": "Al Raha Beach",
        "emirate": "Abu Dhabi",
        "level": "community",
        "pinColor": "#7FE7FF",
        "glowColor": "#A9F4FF",
        "labelColor": "#EAF9FF",
        "labelSize": 14,
        "markerSize": 1.0,
        "theme": "uae-premium-night"
      },
      "geometry": {
        "type": "Point",
        "coordinates": [
          54.575,
          24.446
        ]
      }
    },
    {
      "type": "Feature",
      "properties": {
        "name": "Khalifa City",
        "emirate": "Abu Dhabi",
        "level": "community",
        "pinColor": "#F5D27A",
        "glowColor": "#FFE8A3",
        "labelColor": "#EAF9FF",
        "labelSize": 14,
        "markerSize": 1.0,
        "theme": "uae-premium-night"
      },
      "geometry": {
        "type": "Point",
        "coordinates": [
          54.5783,
          24.4259
        ]
      }
    },
    {
      "type": "Feature",
      "properties": {
        "name": "Masdar City",
        "emirate": "Abu Dhabi",
        "level": "community",
        "pinColor": "#7FE7FF",
        "glowColor": "#A9F4FF",
        "labelColor": "#EAF9FF",
        "labelSize": 14,
        "markerSize": 1.0,
        "theme": "uae-premium-night"
      },
      "geometry": {
        "type": "Point",
        "coordinates": [
          54.6144,
          24.4274
        ]
      }
    },
    {
      "type": "Feature",
      "properties": {
        "name": "Al Maryah Island",
        "emirate": "Abu Dhabi",
        "level": "community",
        "pinColor": "#F5D27A",
        "glowColor": "#FFE8A3",
        "labelColor": "#EAF9FF",
        "labelSize": 14,
        "markerSize": 1.0,
        "theme": "uae-premium-night"
      },
      "geometry": {
        "type": "Point",
        "coordinates": [
          54.3875,
          24.5018
        ]
      }
    },
    {
      "type": "Feature",
      "properties": {
        "name": "Corniche Area",
        "emirate": "Abu Dhabi",
        "level": "community",
        "pinColor": "#7FE7FF",
        "glowColor": "#A9F4FF",
        "labelColor": "#EAF9FF",
        "labelSize": 14,
        "markerSize": 1.0,
        "theme": "uae-premium-night"
      },
      "geometry": {
        "type": "Point",
        "coordinates": [
          54.3328,
          24.4766
        ]
      }
    },
    {
      "type": "Feature",
      "properties": {
        "name": "Mohammed Bin Zayed City",
        "emirate": "Abu Dhabi",
        "level": "community",
        "pinColor": "#F5D27A",
        "glowColor": "#FFE8A3",
        "labelColor": "#EAF9FF",
        "labelSize": 14,
        "markerSize": 1.0,
        "theme": "uae-premium-night"
      },
      "geometry": {
        "type": "Point",
        "coordinates": [
          54.547,
          24.323
        ]
      }
    },
    {
      "type": "Feature",
      "properties": {
        "name": "Al Ain",
        "emirate": "Abu Dhabi",
        "level": "community",
        "pinColor": "#7FE7FF",
        "glowColor": "#A9F4FF",
        "labelColor": "#EAF9FF",
        "labelSize": 14,
        "markerSize": 1.0,
        "theme": "uae-premium-night"
      },
      "geometry": {
        "type": "Point",
        "coordinates": [
          55.7447,
          24.2075
        ]
      }
    },
    {
      "type": "Feature",
      "properties": {
        "name": "Al Majaz",
        "emirate": "Sharjah",
        "level": "community",
        "pinColor": "#F5D27A",
        "glowColor": "#FFE8A3",
        "labelColor": "#EAF9FF",
        "labelSize": 14,
        "markerSize": 1.0,
        "theme": "uae-premium-night"
      },
      "geometry": {
        "type": "Point",
        "coordinates": [
          55.3819,
          25.3299
        ]
      }
    },
    {
      "type": "Feature",
      "properties": {
        "name": "Al Khan",
        "emirate": "Sharjah",
        "level": "community",
        "pinColor": "#7FE7FF",
        "glowColor": "#A9F4FF",
        "labelColor": "#EAF9FF",
        "labelSize": 14,
        "markerSize": 1.0,
        "theme": "uae-premium-night"
      },
      "geometry": {
        "type": "Point",
        "coordinates": [
          55.3636,
          25.3166
        ]
      }
    },
    {
      "type": "Feature",
      "properties": {
        "name": "Muwaileh",
        "emirate": "Sharjah",
        "level": "community",
        "pinColor": "#F5D27A",
        "glowColor": "#FFE8A3",
        "labelColor": "#EAF9FF",
        "labelSize": 14,
        "markerSize": 1.0,
        "theme": "uae-premium-night"
      },
      "geometry": {
        "type": "Point",
        "coordinates": [
          55.4704,
          25.2884
        ]
      }
    },
    {
      "type": "Feature",
      "properties": {
        "name": "Aljada",
        "emirate": "Sharjah",
        "level": "community",
        "pinColor": "#7FE7FF",
        "glowColor": "#A9F4FF",
        "labelColor": "#EAF9FF",
        "labelSize": 14,
        "markerSize": 1.0,
        "theme": "uae-premium-night"
      },
      "geometry": {
        "type": "Point",
        "coordinates": [
          55.4399,
          25.3113
        ]
      }
    },
    {
      "type": "Feature",
      "properties": {
        "name": "University City",
        "emirate": "Sharjah",
        "level": "community",
        "pinColor": "#F5D27A",
        "glowColor": "#FFE8A3",
        "labelColor": "#EAF9FF",
        "labelSize": 14,
        "markerSize": 1.0,
        "theme": "uae-premium-night"
      },
      "geometry": {
        "type": "Point",
        "coordinates": [
          55.4898,
          25.2864
        ]
      }
    },
    {
      "type": "Feature",
      "properties": {
        "name": "Khor Fakkan",
        "emirate": "Sharjah",
        "level": "community",
        "pinColor": "#7FE7FF",
        "glowColor": "#A9F4FF",
        "labelColor": "#EAF9FF",
        "labelSize": 14,
        "markerSize": 1.0,
        "theme": "uae-premium-night"
      },
      "geometry": {
        "type": "Point",
        "coordinates": [
          56.3578,
          25.3397
        ]
      }
    },
    {
      "type": "Feature",
      "properties": {
        "name": "Kalba",
        "emirate": "Sharjah",
        "level": "community",
        "pinColor": "#F5D27A",
        "glowColor": "#FFE8A3",
        "labelColor": "#EAF9FF",
        "labelSize": 14,
        "markerSize": 1.0,
        "theme": "uae-premium-night"
      },
      "geometry": {
        "type": "Point",
        "coordinates": [
          56.3614,
          24.9982
        ]
      }
    },
    {
      "type": "Feature",
      "properties": {
        "name": "Ajman Corniche",
        "emirate": "Ajman",
        "level": "community",
        "pinColor": "#F5D27A",
        "glowColor": "#FFE8A3",
        "labelColor": "#EAF9FF",
        "labelSize": 14,
        "markerSize": 1.0,
        "theme": "uae-premium-night"
      },
      "geometry": {
        "type": "Point",
        "coordinates": [
          55.4394,
          25.4179
        ]
      }
    },
    {
      "type": "Feature",
      "properties": {
        "name": "Al Nuaimiya",
        "emirate": "Ajman",
        "level": "community",
        "pinColor": "#7FE7FF",
        "glowColor": "#A9F4FF",
        "labelColor": "#EAF9FF",
        "labelSize": 14,
        "markerSize": 1.0,
        "theme": "uae-premium-night"
      },
      "geometry": {
        "type": "Point",
        "coordinates": [
          55.4777,
          25.401
        ]
      }
    },
    {
      "type": "Feature",
      "properties": {
        "name": "Al Rashidiya",
        "emirate": "Ajman",
        "level": "community",
        "pinColor": "#F5D27A",
        "glowColor": "#FFE8A3",
        "labelColor": "#EAF9FF",
        "labelSize": 14,
        "markerSize": 1.0,
        "theme": "uae-premium-night"
      },
      "geometry": {
        "type": "Point",
        "coordinates": [
          55.4914,
          25.4045
        ]
      }
    },
    {
      "type": "Feature",
      "properties": {
        "name": "Al Jurf",
        "emirate": "Ajman",
        "level": "community",
        "pinColor": "#7FE7FF",
        "glowColor": "#A9F4FF",
        "labelColor": "#EAF9FF",
        "labelSize": 14,
        "markerSize": 1.0,
        "theme": "uae-premium-night"
      },
      "geometry": {
        "type": "Point",
        "coordinates": [
          55.5137,
          25.3728
        ]
      }
    },
    {
      "type": "Feature",
      "properties": {
        "name": "Al Salamah",
        "emirate": "Umm Al Quwain",
        "level": "community",
        "pinColor": "#F5D27A",
        "glowColor": "#FFE8A3",
        "labelColor": "#EAF9FF",
        "labelSize": 14,
        "markerSize": 1.0,
        "theme": "uae-premium-night"
      },
      "geometry": {
        "type": "Point",
        "coordinates": [
          55.5485,
          25.5606
        ]
      }
    },
    {
      "type": "Feature",
      "properties": {
        "name": "Al Raas",
        "emirate": "Umm Al Quwain",
        "level": "community",
        "pinColor": "#7FE7FF",
        "glowColor": "#A9F4FF",
        "labelColor": "#EAF9FF",
        "labelSize": 14,
        "markerSize": 1.0,
        "theme": "uae-premium-night"
      },
      "geometry": {
        "type": "Point",
        "coordinates": [
          55.5558,
          25.5652
        ]
      }
    },
    {
      "type": "Feature",
      "properties": {
        "name": "Falaj Al Mualla",
        "emirate": "Umm Al Quwain",
        "level": "community",
        "pinColor": "#F5D27A",
        "glowColor": "#FFE8A3",
        "labelColor": "#EAF9FF",
        "labelSize": 14,
        "markerSize": 1.0,
        "theme": "uae-premium-night"
      },
      "geometry": {
        "type": "Point",
        "coordinates": [
          55.667,
          25.3087
        ]
      }
    },
    {
      "type": "Feature",
      "properties": {
        "name": "Al Hamra Village",
        "emirate": "Ras Al Khaimah",
        "level": "community",
        "pinColor": "#F5D27A",
        "glowColor": "#FFE8A3",
        "labelColor": "#EAF9FF",
        "labelSize": 14,
        "markerSize": 1.0,
        "theme": "uae-premium-night"
      },
      "geometry": {
        "type": "Point",
        "coordinates": [
          55.7798,
          25.6895
        ]
      }
    },
    {
      "type": "Feature",
      "properties": {
        "name": "Mina Al Arab",
        "emirate": "Ras Al Khaimah",
        "level": "community",
        "pinColor": "#7FE7FF",
        "glowColor": "#A9F4FF",
        "labelColor": "#EAF9FF",
        "labelSize": 14,
        "markerSize": 1.0,
        "theme": "uae-premium-night"
      },
      "geometry": {
        "type": "Point",
        "coordinates": [
          55.804,
          25.7203
        ]
      }
    },
    {
      "type": "Feature",
      "properties": {
        "name": "Al Marjan Island",
        "emirate": "Ras Al Khaimah",
        "level": "community",
        "pinColor": "#F5D27A",
        "glowColor": "#FFE8A3",
        "labelColor": "#EAF9FF",
        "labelSize": 14,
        "markerSize": 1.0,
        "theme": "uae-premium-night"
      },
      "geometry": {
        "type": "Point",
        "coordinates": [
          55.7456,
          25.6977
        ]
      }
    },
    {
      "type": "Feature",
      "properties": {
        "name": "RAK City",
        "emirate": "Ras Al Khaimah",
        "level": "community",
        "pinColor": "#7FE7FF",
        "glowColor": "#A9F4FF",
        "labelColor": "#EAF9FF",
        "labelSize": 14,
        "markerSize": 1.0,
        "theme": "uae-premium-night"
      },
      "geometry": {
        "type": "Point",
        "coordinates": [
          55.9432,
          25.7895
        ]
      }
    },
    {
      "type": "Feature",
      "properties": {
        "name": "Julphar",
        "emirate": "Ras Al Khaimah",
        "level": "community",
        "pinColor": "#F5D27A",
        "glowColor": "#FFE8A3",
        "labelColor": "#EAF9FF",
        "labelSize": 14,
        "markerSize": 1.0,
        "theme": "uae-premium-night"
      },
      "geometry": {
        "type": "Point",
        "coordinates": [
          55.9766,
          25.8001
        ]
      }
    },
    {
      "type": "Feature",
      "properties": {
        "name": "Fujairah City",
        "emirate": "Fujairah",
        "level": "community",
        "pinColor": "#F5D27A",
        "glowColor": "#FFE8A3",
        "labelColor": "#EAF9FF",
        "labelSize": 14,
        "markerSize": 1.0,
        "theme": "uae-premium-night"
      },
      "geometry": {
        "type": "Point",
        "coordinates": [
          56.3265,
          25.1288
        ]
      }
    },
    {
      "type": "Feature",
      "properties": {
        "name": "Dibba Al Fujairah",
        "emirate": "Fujairah",
        "level": "community",
        "pinColor": "#7FE7FF",
        "glowColor": "#A9F4FF",
        "labelColor": "#EAF9FF",
        "labelSize": 14,
        "markerSize": 1.0,
        "theme": "uae-premium-night"
      },
      "geometry": {
        "type": "Point",
        "coordinates": [
          56.2729,
          25.6195
        ]
      }
    },
    {
      "type": "Feature",
      "properties": {
        "name": "Al Faseel",
        "emirate": "Fujairah",
        "level": "community",
        "pinColor": "#F5D27A",
        "glowColor": "#FFE8A3",
        "labelColor": "#EAF9FF",
        "labelSize": 14,
        "markerSize": 1.0,
        "theme": "uae-premium-night"
      },
      "geometry": {
        "type": "Point",
        "coordinates": [
          56.3504,
          25.1399
        ]
      }
    },
    {
      "type": "Feature",
      "properties": {
        "name": "Sakamkam",
        "emirate": "Fujairah",
        "level": "community",
        "pinColor": "#7FE7FF",
        "glowColor": "#A9F4FF",
        "labelColor": "#EAF9FF",
        "labelSize": 14,
        "markerSize": 1.0,
        "theme": "uae-premium-night"
      },
      "geometry": {
        "type": "Point",
        "coordinates": [
          56.3253,
          25.155
        ]
      }
    }
  ]
}